{"type": "FeatureCollection",
"features": [
{"type": "Feature","geometry": {"type": "Point","coordinates": [78.146718,11.681375]},"properties": {"name": "abc", "start" : 1, "end": 1.5, "tag": ["test"]}},

{"type": "Feature","geometry": {"type": "Point","coordinates": [78.1175068,11.670222]},"properties": {"name": "spr cine castle", "tag": ["salem","theatre"]}},
{"type": "Feature","geometry": {"type": "Point","coordinates": [78.1534731,11.6429112]},"properties": {"name": "rajasabari", "tag": ["salem","theatre"]}},
{"type": "Feature","geometry": {"type": "Point","coordinates": [78.1508614,11.6404729]},"properties": {"name": "k.s", "tag": ["salem","theatre"]}},
{"type": "Feature","geometry": {"type": "Point","coordinates": [78.1612427,11.6482058]},"properties": {"name": "aascars", "tag": ["salem","theatre"]}},

{"type": "Feature","geometry": {"type": "Point","coordinates": [78.127873,11.632619]},"properties": {"name": "kondalaampatti", "tag": ["salem","marker"]}},
{"type": "Feature","geometry": {"type": "Point","coordinates": [78.1401347,11.6872416]},"properties": {"name": "rajathji", "tag": ["salem","marker"]}},
{"type": "Feature","geometry": {"type": "Point","coordinates": [78.1598375,11.6755636]},"properties": {"name": "bull", "tag": ["salem","marker"]}},
{"type": "Feature","geometry": {"type": "Point","coordinates": [78.1443156,11.6614686]},"properties": {"name": "anna park", "tag": ["salem","marker"]}},
{"type": "Feature","geometry": {"type": "Point","coordinates": [78.1137963,11.6706244]},"properties": {"name": "junction", "tag": ["salem","marker"]}},
{"type": "Feature","geometry": {"type": "Point","coordinates": [78.1199727,11.6420627]},"properties": {"name": "erode flyover", "tag": ["salem","marker"]}},
{"type": "Feature","geometry": {"type": "Point","coordinates": [78.1472618,11.6251981]},"properties": {"name": "seelanaickanpatti", "tag": ["salem","marker"]}},

{"type": "Feature","geometry": {"type": "Point","coordinates": [78.1324137,11.6786486]},"properties": {"name": "d mart", "tag": ["salem"]}},
{"type": "Feature","geometry": {"type": "Point","coordinates": [78.1654664,11.6837997]},"properties": {"name": "chinna tirupapthi", "tag": ["salem","area"]}},
{"type": "Feature","geometry": {"type": "Point","coordinates": [78.1081293,11.6508921]},"properties": {"name": "sivathapuram", "tag": ["salem","area"]}},
{"type": "Feature","geometry": {"type": "Point","coordinates": [78.1610985,11.6875516]},"properties": {"name": "gori medu", "tag": ["salem","area"]}},
{"type": "Feature","geometry": {"type": "Point","coordinates": [78.1182915,11.6751492]},"properties": {"name": "sooramangalam", "tag": ["salem","area"]}},

{"type": "Feature","geometry": {"type": "Point","coordinates": [78.0971991,11.685047]},"properties": {"name": "coco villa", "tag": ["salem","land"]}},

{"type": "Feature","geometry": {"type": "Point","coordinates": [78.1209231,11.6729858]},"properties": {"name": "gupta sweets", "tag": ["salem","restaurant"]}},
{"type": "Feature","geometry": {"type": "Point","coordinates": [78.1459354,11.6770252]},"properties": {"name": "jojo", "tag": ["salem","restaurant"]}},
{"type": "Feature","geometry": {"type": "Point","coordinates": [78.1464044,11.676939]},"properties": {"name": "chongqing", "tag": ["salem","restaurant"]}},
{"type": "Feature","geometry": {"type": "Point","coordinates": [78.1563479,11.6564525]},"properties": {"name": "coll ofc", "tag": ["salem","marker"]}},
{"type": "Feature","geometry": {"type": "Point","coordinates": [78.1283491,11.6759812]},"properties": {"name": "pallazio", "tag": ["salem","marker"]}},



{"type": "Feature","geometry": {"type": "Point","coordinates": [79.0093856,11.7362103]},"properties": {"name": "kallakuruchi", "tag": ["s2c","marker","toll"]}},
{"type": "Feature","geometry": {"type": "Point","coordinates": [79.0742321,11.7342008]},"properties": {"name": "thyagadurgam", "tag": ["s2c","marker","mountain"]}},
{"type": "Feature","geometry": {"type": "Point","coordinates": [78.2624786,11.6659575]},"properties": {"name": "jai dev", "tag": ["s2c","marker","hospital"]}},
{"type": "Feature","geometry": {"type": "Point","coordinates": [78.3307415,11.6615372]},"properties": {"name": "mettupatti toll", "tag": ["s2c","marker"]}},
{"type": "Feature","geometry": {"type": "Point","coordinates": [78.3318229,11.6652402]},"properties": {"name": "salem engg college", "tag": ["s2c","marker","college"]}},
{"type": "Feature","geometry": {"type": "Point","coordinates": [78.4844608,11.6513067]},"properties": {"name": "murugan", "tag": ["s2c","marker"]}},
{"type": "Feature","geometry": {"type": "Point","coordinates": [78.7360627,11.5855234]},"properties": {"name": "barathiyar college", "tag": ["s2c","marker","college"]}},
{"type": "Feature","geometry": {"type": "Point","coordinates": [78.7513327,11.5861231]},"properties": {"name": "thalaivasal vasishtar river", "tag": ["s2c","marker","river"]}},
{"type": "Feature","geometry": {"type": "Point","coordinates": [79.6603197,12.2171377]},"properties": {"name": "thindivanam golden hall", "tag": ["s2c","marker"]}},
{"type": "Feature","geometry": {"type": "Point","coordinates": [78.6209233,11.5929957]},"properties": {"name": "attur split", "tag": ["s2c","marker"]}}

]
}